{
  "SL": {
    "name": "Sleman",
    "capital": "Ngaglik",
    "lat": "-7.716593343879414",
    "long": "110.39695070719387"
  },
  "BT": {
    "name": "Bantul",
    "capital": "Kasihan",
    "lat": "-7.8202718330708185",
    "long": "110.33379912404328"
  },
  "KP": {
    "name": "Kulon Progo",
    "capital": "Glagah",
    "lat": "-7.9042095108597445",
    "long": "110.0715579694111"
  },
  "GK": {
    "name": "Gunung Kidul",
    "capital": "Wonosari",
    "lat": "-7.954118098508496",
    "long": "110.59719938647986"
  },
  "KY": {
    "name": "Kota Yogyakarta",
    "capital": "Kotagede",
    "lat": "-7.818054492069467",
    "long": "110.39833011214866"
  }
}